[
{"id": 0, "name": "Kaissa Oucherif", "address": "Souk naamane centre", "wilaya_txt": "Oum El-Bouaghi", "commune_txt": "Souk Naamane", "code_postal": "4000", "latitude": 35.9414231, "longitude": 6.3864428, ",allTagsTxt": "Médecine Générale", "link": "https://annumed.sante-dz.com/detail/medecin/kaissa-oucherif"},
{"name": "Dr. S.ATTABI", "street_address": "1, rue rabah asselah, bt q (ex. dr roux) la regie, ruisseau, belouizded, alger", "commune": "Belouizdad", "wilaya": "Alger", "tags": "Ophtalmologue", "latitude": "10", "longitude": "10", "phone_number": "+213774320270"},
{"id": 1, "name": "Anouar Khefif", "address": "Cite el matmar latti ahmed", "wilaya_txt": "Tlemcen", "commune_txt": "Sebdou", "code_postal": "13000", "latitude": 34.6396882, "longitude": -1.332462, ",allTagsTxt": "Anesthésie - Réanimation", "link": "https://annumed.sante-dz.com/detail/medecin/anouar-khefif"},
{"id": 2, "name": "RAHMANI", "address": "Cité 92 logts les jardins n°3", "wilaya_txt": "Tizi-Ouzou", "commune_txt": "Tizi Ouzou", "code_postal": "15000", "latitude": 36.7807954, "longitude": 4.5896888, ",allTagsTxt": "Cardiologue", "link": "https://annumed.sante-dz.com/detail/medecin/rahmani"},
{"id": 3, "name": "LARBI Mohamed", "address": "02 bloc a cite 320 logts tissemsilt, tissemsilt(38), algérie", "wilaya_txt": "Tissemsilt", "commune_txt": "Tissemsilt", "code_postal": "38000", "latitude": 37.2061666, "longitude": -93.2903025, ",allTagsTxt": "Gynéco-Obstetrique", "link": "https://annumed.sante-dz.com/detail/medecin/larbi-mohamed"},
{"name": "MAIDAT YASSINE", "street_address": "Cité soummam bt b1 n° 6", "commune": "Boufarik", "wilaya": "Blida", "tags": "Gastro-Entérologue", "latitude": "36.5848591", "longitude": "2.9076094", "phone_number": "+21325473974"},
{"name": "benziouche bouzid", "street_address": "37bd houari boumediene lotissement benziouche - bordj bou arreridj algerie", "commune": "Bordj Bou Arreridj", "wilaya": "Bordj-Bou-Arréridj", "tags": "Médecine Générale", "latitude": "36.0735002", "longitude": "4.7547395", "phone_number": "+213554506092"},
{"id": 4, "name": "Ali Nadji", "address": "25 rue hadj abdelhafid said", "wilaya_txt": "Alger", "commune_txt": "Ain Benian", "code_postal": "16000", "latitude": 36.7965083, "longitude": 2.9337917, ",allTagsTxt": "Médecine Générale", "link": "https://annumed.sante-dz.com/detail/medecin/ali-nadji"},
{"name": "hachemi bachir", "street_address": "Cité 850 logements bt 15", "commune": "Boudouaou", "wilaya": "Boumerdès", "tags": "Rhumatologue", "latitude": "36.7003998", "longitude": "3.4296446", "phone_number": "+213551729099"},
{"name": "Bella Houcine", "street_address": "Cité el amel méchéria", "commune": "Mecheria", "wilaya": "Naâma", "tags": "Radiologue", "latitude": "33.5442772", "longitude": "-0.2762707", "phone_number": "+21349787765"},
{"name": "OUAMRANE Ali", "street_address": "Cité des 300 logts . bt. h, freha", "commune": "Freha", "wilaya": "Tizi-Ouzou", "tags": "Chirurgie dentaire", "latitude": "36.7584263", "longitude": "4.3177067", "phone_number": "+21326241835"},
{"name": "BELOUCIF Tewfik", "street_address": "11, rue des frères meslem sidi mhamed alger", "commune": "Sidi M'Hamed", "wilaya": "Alger", "tags": "Urologue", "latitude": "36.7646837", "longitude": "3.0513036", "phone_number": "+2133550883514"},
{"name": "Dr OUARED", "street_address": "Quartier seghir promotion allouache,  derrière la société générale, au 1er étage au dessus du magasin dozz bejaia", "commune": "Béjaïa", "wilaya": "Béjaïa", "tags": "Médecine Générale", "latitude": "36.749472318556165", "longitude": "5.056031792905437", "phone_number": "+213540761778"},
{"name": "Dr MAHFOUF Siham, interniste", "street_address": "Cité rabia tahar bt 32a n°02 ,en face opgi", "commune": "Bab Ezzouar", "wilaya": "Alger", "tags": "Médecine Interne", "latitude": "36.720469638345314", "longitude": "3.1817790865898177", "phone_number": "+213554144533"},
{"name": "Spécialiste en rhumatologie et maladies inflammatoires", "street_address": "Hôpital de tamanrasset", "commune": "Tamanrasset", "wilaya": "Tamanrasset", "tags": "Ortho-rhumatologue", "latitude": "10", "longitude": "10", "phone_number": "+213661888897"},
{"name": "Dr Boudiaf boubekeur/ Chirurgien", "street_address": "Cité 08 mai 1945 bt 15c n°8 bab ezzouar alger", "commune": "Bab Ezzouar", "wilaya": "Alger", "tags": "Chirurgie Générale|Chirurgien viscéral et digestif|Chirurgien du foie, du pancréas et des voies biliaires|Chirurgien cancérologue|Chirurgien|Coeliochirurgie", "latitude": "36.7206251", "longitude": "3.1854975", "phone_number": "+21323818129"},
{"name": "Dr N.GUEDDOUDA eps MERAD", "street_address": "Rue ali benfedda , bâtiment a bloc 3 1er étage zeralda alger 16063 zeralda", "commune": "Zeralda", "wilaya": "Alger", "tags": "Endocrinologue|Diabétologue", "latitude": "36.715573", "longitude": "2.841993", "phone_number": "+21323325500"},
{"name": "Centre belfort.vision Dr. Sofiane BELLAHCENE", "street_address": "Rue djebel bouzegueza, el-harrach, algérie", "commune": "El Harrach", "wilaya": "Alger", "tags": "Ophtalmologue", "latitude": "36.72022370467509", "longitude": "3.142654064873568", "phone_number": "+213542212739"},
{"name": "Chirurgien pédiatre Dr Yekene Noureddine", "street_address": "Cité 5 juillet beb ezzouar batiment 74d appartement 3 alger", "commune": "Bab Ezzouar", "wilaya": "Alger", "tags": "Chirurgie Pédiatrique|Pédiatrie|Pédiatre", "latitude": "36.7204287", "longitude": "3.1926833999999644", "phone_number": "+213555486733"},
{"name": "Dr MARTANI Mohamed Neuro-chirurgien", "street_address": "Rue 1er novembre 1954,promotion immobilière el wafa 02 villa 01,el bouni, annaba", "commune": "El Bouni", "wilaya": "Annaba", "tags": "Neuro-Chirurgue", "latitude": "36.85472882", "longitude": "7.74250746", "phone_number": "+213541278398"},
{"name": "Laboratoire d'ANAPATH Dr BAHRIZ Anapath", "street_address": "N 1 rue larbi madi bab el oued (en face de l'hôpital maillot)", "commune": "Bab El Oued", "wilaya": "Alger", "tags": "Néphrologue", "latitude": "36.7928856", "longitude": "3.0477148", "phone_number": "+213793833378"},
{"name": "Mohamed Karim Demmak", "street_address": "74 rue des patrimoines bellevue", "commune": "Constantine", "wilaya": "Constantine", "tags": "Rhumatologue", "latitude": "36.3533115", "longitude": "6.6063954", "phone_number": "+213792449915"},
{"name": "Dr Dahmani kamel", "street_address": "Cite cenestal bat j no 224 reghaia alger à coté du stade (sur la route du lycée berrahal)", "commune": "Reghaïa", "wilaya": "Alger", "tags": "Pneumo-Phtisiologue", "latitude": "36.74350333667216", "longitude": "3.342825865278636", "phone_number": "+213771793354"},
{"name": "Dr Birem Mohamed Anis", "street_address": "Cité tarek ibn ziad, berdaïa 2, lot num 01. el bouni. annaba", "commune": "El Bouni", "wilaya": "Annaba", "tags": "Psychiatrie|Neuro-Psychiatrie|Sexologue|Psychothérapeute|Psychiatre de l'enfant et de l'adolescent|Psychanalyste", "latitude": "36.85362121321725", "longitude": "7.741440534591675", "phone_number": "+213552401088"},
{"name": "Abdelhakim Mokrane", "street_address": "22 rue mohamed belouizdad, sidi m'hamed, algérie", "commune": "Belouizdad", "wilaya": "Alger", "tags": "Chirurgie Orthopédique", "latitude": "36.7596742", "longitude": "3.055812199999991", "phone_number": "+213699759419"},
{"name": "Dr. EL AMRAOUI MOHAMED HAMZA", "street_address": "Nouvelle ville de sidi abdellah 30 cité du martyr marzougue ali ben taib mehalma alger (ruelle mediant le bloc q35 lpp et el karia)", "commune": "Mahelma", "wilaya": "Alger", "tags": "Pédiatre néonatologue", "latitude": "36.69060986229031", "longitude": "2.8719272740779616", "phone_number": "+213550205885"},
{"name": "Hancy Kada Bessouf", "street_address": "3 place des martyrs es senia oran près du tribunal es senia. en face de la mosquée", "commune": "Es Senia", "wilaya": "Oran", "tags": "Pneumo-Phtisiologue", "latitude": "35.6496471", "longitude": "-0.6276842", "phone_number": "+213773436218"},
{"name": "Sonia Benhamiche", "street_address": "12 boulevard emir abdelkader, boufarik, algérie", "commune": "Boufarik", "wilaya": "Blida", "tags": "Ophtalmologue", "latitude": "36.576405", "longitude": "2.910798", "phone_number": "+213325484403"},
{"name": "Dr. tenni salhi.n", "street_address": "Rue bouadjmi mimoun et youbi moussa numéro 65 oran", "commune": "Oran", "wilaya": "Oran", "tags": "Gastro-Entérologue", "latitude": "35.69756648784934", "longitude": "-0.6216369376586499", "phone_number": "+213558868104"},
{"name": "Dr. DIB Sabri", "street_address": "Adresse cité sahel - bt a 18 - kerkouba route de fouka ( à 300 m du nouveau tribunal) 42400 koléa, tipaza, algerie", "commune": "Kolea", "wilaya": "Tipaza", "tags": "Chirurgie Urologique|Sexologue|Urologue|Andrologue", "latitude": "36.648038", "longitude": "2.769556", "phone_number": "+213656727011"},
{"name": "Dr. Radia Bourezg", "street_address": "Coopérative immobilière alwouroud , plateau , boudouaou. w . boumerdes", "commune": "Boudouaou", "wilaya": "Boumerdès", "tags": "Pédiatrie", "latitude": "36.7342737", "longitude": "3.393091", "phone_number": "+213551702411"},
{"name": "BITOUCHE SMAILI FATIMA", "street_address": "Lotissement des jeunes aveugles lot 95 draria", "commune": "Draria", "wilaya": "Alger", "tags": "ORL", "latitude": "36.7172858", "longitude": "3.0025615", "phone_number": "+213542142571"},
{"name": "Cabinet Médical Belkacem", "street_address": "66 a rue messaour abdelkader sour el ghozlane dz، 10004", "commune": "Relizane", "wilaya": "Relizane", "tags": "Médecin généraliste", "latitude": "36.1487404", "longitude": "3.691182099999992", "phone_number": "+21326756239"},
{"name": "Dr. Bouasria Nasraddine", "street_address": "01 rue chetouane abdallah , ancienne gare - taher", "commune": "Taher", "wilaya": "Jijel", "tags": "Médecine Générale", "latitude": "36.77742249999999", "longitude": "5.901202099999978", "phone_number": "+21334445846"},
{"name": "KADDAR Djelloul", "street_address": "14, rue capitaine boucif", "commune": "Tiaret", "wilaya": "Tiaret", "tags": "Psychiatrie", "latitude": "35.3715156", "longitude": "1.3175064", "phone_number": "+21338458245"},
{"name": "Dr. kadri amine", "street_address": "A1.2 r\\u00e9sidence les aures (rahmouni) \\u00e0 c\\u00f4t\\u00e9 de tls contact visa - oran", "commune": "Oran", "wilaya": "Oran", "tags": "", "latitude": "35.697678", "longitude": "35.697678", "phone_number": "Touslejoursde08hu00e017h00saufleVendredi"},
{"name": "E.h dr medjbeur tami ain turk", "street_address": "Paradis plage - ain turk - w.oran", "commune": "Oran", "wilaya": "Oran", "tags": "", "latitude": "10", "longitude": "10", "phone_number": "+213(0)41442424"},
{"name": "CLD Esthéticiennes", "street_address": "72, rue larbi ben m\\u2019hidi (angle place hoche) - oran", "commune": "Oran", "wilaya": "Oran", "tags": "Dérmatologue", "latitude": "10", "longitude": "10", "phone_number": "+213(0)41335847"},
{"name": "Accors ambulance", "street_address": "N°113 lotissement 307 - n°154 d159 - n°03 & 04 - gdyel - oran", "commune": "Oran", "wilaya": "Oran", "tags": "", "latitude": "35.782589", "longitude": "35.782589", "phone_number": "+213(0)561623031"},
{"name": "BAKA MENNOUBA", "street_address": "24 rue kriti mokhtar", "commune": "Blida", "wilaya": "Blida", "tags": "Gynéco-Obstetrique", "latitude": "36.485007", "longitude": "2.838839", "phone_number": "+21325321978"},
{"id": 5, "name": "Farida Mohammedi", "address": "Cité djilali liabes", "wilaya_txt": "Alger", "commune_txt": "Kouba", "code_postal": "16000", "latitude": 36.7266729, "longitude": 3.0814946, ",allTagsTxt": "Médecine Générale", "link": "https://annumed.sante-dz.com/detail/medecin/farida-mohammedi"},
{"id": 6, "name": "Hafsia Bala", "address": "Hai chouhada", "wilaya_txt": "Batna", "commune_txt": "Batna", "code_postal": "5000", "latitude": 35.5378138, "longitude": 6.1613155, ",allTagsTxt": "Médecine Générale", "link": "https://annumed.sante-dz.com/detail/medecin/hafsia-bala"},
{"id": 7, "name": "Athmane Hammoudi", "address": "Draa ben khedda centre", "wilaya_txt": "Tizi-Ouzou", "commune_txt": "Draa Ben Khedda", "code_postal": "15000", "latitude": 36.732861, "longitude": 3.961434, ",allTagsTxt": "Médecine Générale", "link": "https://annumed.sante-dz.com/detail/medecin/athmane-hammoudi"},
{"id": 8, "name": "Yamina Bouchene", "address": "Boulevard des 20 metres", "wilaya_txt": "Blida", "commune_txt": "Blida", "code_postal": "9000", "latitude": 36.4799463, "longitude": 2.8203013, ",allTagsTxt": "Gynécologue", "link": "https://annumed.sante-dz.com/detail/medecin/yamina-bouchene"},
{"id": 9, "name": "Moufida Tamanhoulekt", "address": "Route de lens base", "wilaya_txt": "Batna", "commune_txt": "Batna", "code_postal": "5000", "latitude": 35.5610218, "longitude": 6.1739116, ",allTagsTxt": "Médecine Générale", "link": "https://annumed.sante-dz.com/detail/medecin/moufida-tamanhoulekt"},
{"id": 10, "name": "Hanane Sayad", "address": "Rue plateau", "wilaya_txt": "Alger", "commune_txt": "Zeralda", "code_postal": "16000", "latitude": 36.6946148, "longitude": 2.8277963, ",allTagsTxt": "Médecine Interne", "link": "https://annumed.sante-dz.com/detail/medecin/hanane-sayad"},
{"id": 11, "name": "Saliha Degdeg", "address": "Rue boucherka", "wilaya_txt": "Jijel", "commune_txt": "Taher", "code_postal": "18000", "latitude": 36.784307, "longitude": 5.9008771, ",allTagsTxt": "Anesthésie - Réanimation", "link": "https://annumed.sante-dz.com/detail/medecin/saliha-degdeg"},
{"id": 12, "name": "Younes Belkassem", "address": "2 cite 60 logements opgi", "wilaya_txt": "Boumerdès", "commune_txt": "Naciria", "code_postal": "35000", "latitude": 36.7317908, "longitude": 3.8146526, ",allTagsTxt": "Médecine Générale", "link": "https://annumed.sante-dz.com/detail/medecin/younes-belkassem"},
{"id": 13, "name": "Samira Agueb", "address": "Cite 1 er novembre 1954", "wilaya_txt": "Médéa", "commune_txt": "Ouzera", "code_postal": "26000", "latitude": 36.252581, "longitude": 2.8463103, ",allTagsTxt": "Médecine Générale", "link": "https://annumed.sante-dz.com/detail/medecin/samira-agueb"},
{"id": 14, "name": "Amina Hadieouch Ep Mezrag", "address": "Bouira centre", "wilaya_txt": "Bouira", "commune_txt": "Ain Laloui", "code_postal": "10000", "latitude": 36.3019154, "longitude": 3.7536663, ",allTagsTxt": "Médecine Générale", "link": "https://annumed.sante-dz.com/detail/medecin/amina-hadieouch-ep-mezrag"},
{"id": 15, "name": "Rahma Mahmoudi", "address": "5 boulevard mohamed v", "wilaya_txt": "Tlemcen", "commune_txt": "Tlemcen", "code_postal": "13000", "latitude": 34.8752015, "longitude": -1.3214201, ",allTagsTxt": "Maladies Infectieuses", "link": "https://annumed.sante-dz.com/detail/medecin/rahma-mahmoudi"},
{"id": 16, "name": "Fateh Arezki", "address": "Ait idris taskriout", "wilaya_txt": "Béjaïa", "commune_txt": "Darguina", "code_postal": "6000", "latitude": 36.5646014, "longitude": 5.2863094, ",allTagsTxt": "Médecine Générale", "link": "https://annumed.sante-dz.com/detail/medecin/fateh-arezki"},
{"id": 17, "name": "Boumedienne Cheikh", "address": "31 bd de l independance", "wilaya_txt": "Mascara", "commune_txt": "Sig", "code_postal": "29000", "latitude": 35.5518272, "longitude": -0.1952135, ",allTagsTxt": "Médecine Générale", "link": "https://annumed.sante-dz.com/detail/medecin/boumedienne-cheikh"},
{"id": 18, "name": "Nesrine Mansouri Ep Zitouni", "address": "5 rue ali boumendjel", "wilaya_txt": "Alger", "commune_txt": "Rouiba", "code_postal": "16000", "latitude": 36.7417613, "longitude": 3.2796384, ",allTagsTxt": "Gynécologue", "link": "https://annumed.sante-dz.com/detail/medecin/nesrine-mansouri-ep-zitouni"},
{"id": 19, "name": "Noureddine Elagag", "address": "Route de mascara", "wilaya_txt": "Mascara", "commune_txt": "Sig", "code_postal": "29000", "latitude": 35.5318482, "longitude": -0.1874624, ",allTagsTxt": "Médecine Générale", "link": "https://annumed.sante-dz.com/detail/medecin/noureddine-elagag"},
{"id": 20, "name": "Nacera Sadate", "address": "A cote du jardin petit vicky", "wilaya_txt": "Aïn Témouchent", "commune_txt": "Hammam Bouhadjar", "code_postal": "46000", "latitude": 35.3765955, "longitude": -0.9654269, ",allTagsTxt": "Médecine Générale", "link": "https://annumed.sante-dz.com/detail/medecin/nacera-sadate"},
{"id": 21, "name": "Soumeya Hadjeres", "address": "Route de meskiana", "wilaya_txt": "Oum El-Bouaghi", "commune_txt": "Ain Beida", "code_postal": "4000", "latitude": 35.7981327, "longitude": 7.3921734, ",allTagsTxt": "Médecine Générale", "link": "https://annumed.sante-dz.com/detail/medecin/soumeya-hadjeres"},
{"id": 22, "name": "Adel Chaouech", "address": "Cite draa zitoun", "wilaya_txt": "Batna", "commune_txt": "Arris", "code_postal": "5000", "latitude": 35.3005374, "longitude": 6.3545169, ",allTagsTxt": "Chirurgie Orthopédique", "link": "https://annumed.sante-dz.com/detail/medecin/adel-chaouech"},
{"id": 23, "name": "Mohamed Abdelazziz Kabdi", "address": "Cite chorfa", "wilaya_txt": "Ouargla", "commune_txt": "Ouargla", "code_postal": "30000", "latitude": 31.9511867, "longitude": 5.3220141, ",allTagsTxt": "Médecine Générale", "link": "https://annumed.sante-dz.com/detail/medecin/mohamed-abdelazziz-kabdi"},
{"id": 24, "name": "Djamel Belateche", "address": "Cité ben omar", "wilaya_txt": "Alger", "commune_txt": "Kouba", "code_postal": "16000", "latitude": 36.7273182, "longitude": 3.0973887, ",allTagsTxt": "Pédiatrie", "link": "https://annumed.sante-dz.com/detail/medecin/djamel-belateche"}
]